# Number of days before re-emailing a previously sent ad
cooldown_days: 30

# Number of days after last seen before discarding an ad from tracking
discard_threshold_days: 180

cities:
  - name: Laval
    lat: 48.066669
    lng: -0.76667
    radius: 50000

  - name: Rennes
    lat: 48.1173
    lng: -1.6778
    radius: 50000

  - name: Nantes
    lat: 47.2184
    lng: -1.5536
    radius: 50000

  - name: Le Mans
    lat: 48.0061
    lng: 0.1996
    radius: 50000

  - name: Angers
    lat: 47.4784
    lng: -0.5632
    radius: 50000
